<?xml version="1.0" encoding="UTF-8"?>
<kml xmlns="http://www.opengis.net/kml/2.2">
<Document>
<name>Project</name>
<Style id="ptDefault"><IconStyle><color>ff0000ff</color><scale>1.1</scale><Icon><href>http://maps.google.com/mapfiles/kml/paddle/wht-blank.png</href></Icon></IconStyle><LabelStyle><scale>0.9</scale></LabelStyle></Style>
<Style id="start"><IconStyle><color>ff00ff00</color><scale>1.2</scale><Icon><href>http://maps.google.com/mapfiles/kml/paddle/grn-circle.png</href></Icon></IconStyle><LabelStyle><scale>1.0</scale></LabelStyle></Style>
<Style id="end"><IconStyle><color>ff0000ff</color><scale>1.2</scale><Icon><href>http://maps.google.com/mapfiles/kml/paddle/red-circle.png</href></Icon></IconStyle><LabelStyle><scale>1.0</scale></LabelStyle></Style>
<Folder><name>Waypoints</name>
<Placemark><name>FANAL</name><styleUrl>#ptDefault</styleUrl><Point><altitudeMode>clampToGround</altitudeMode><coordinates>-84.30047222,10.01333333,0</coordinates></Point></Placemark>
<Placemark><name>UNIVE</name><styleUrl>#ptDefault</styleUrl><Point><altitudeMode>clampToGround</altitudeMode><coordinates>-84.00016667,10.01333333,0</coordinates></Point></Placemark>
<Placemark><name>LALIA</name><styleUrl>#ptDefault</styleUrl><Point><altitudeMode>clampToGround</altitudeMode><coordinates>-84.36680556,10.01855556,0</coordinates></Point></Placemark>
<Placemark><name>AMBRO</name><styleUrl>#ptDefault</styleUrl><Point><altitudeMode>clampToGround</altitudeMode><coordinates>-84.51572222,10.03019444,0</coordinates></Point></Placemark>
<Placemark><name>NUBES</name><styleUrl>#ptDefault</styleUrl><Point><altitudeMode>clampToGround</altitudeMode><coordinates>-83.96605556,10.03063889,0</coordinates></Point></Placemark>
<Placemark><name>SANIS</name><styleUrl>#ptDefault</styleUrl><Point><altitudeMode>clampToGround</altitudeMode><coordinates>-84.04908333,10.03083333,0</coordinates></Point></Placemark>
<Placemark><name>SALVA</name><styleUrl>#ptDefault</styleUrl><Point><altitudeMode>clampToGround</altitudeMode><coordinates>-84.60316667,10.03702778,0</coordinates></Point></Placemark>
<Placemark><name>ARGEN</name><styleUrl>#ptDefault</styleUrl><Point><altitudeMode>clampToGround</altitudeMode><coordinates>-84.34705556,10.04505556,0</coordinates></Point></Placemark>
<Placemark><name>CACAO</name><styleUrl>#ptDefault</styleUrl><Point><altitudeMode>clampToGround</altitudeMode><coordinates>-84.29155556,10.04811111,0</coordinates></Point></Placemark>
<Placemark><name>RAMON</name><styleUrl>#ptDefault</styleUrl><Point><altitudeMode>clampToGround</altitudeMode><coordinates>-84.41947222,10.07066667,0</coordinates></Point></Placemark>
<Placemark><name>RIOBA</name><styleUrl>#ptDefault</styleUrl><Point><altitudeMode>clampToGround</altitudeMode><coordinates>-84.50641667,10.11130556,0</coordinates></Point></Placemark>
<Placemark><name>MERBU</name><styleUrl>#ptDefault</styleUrl><Point><altitudeMode>clampToGround</altitudeMode><coordinates>-85.56652778,10.11963889,0</coordinates></Point></Placemark>
<Placemark><name>AVSIS</name><styleUrl>#ptDefault</styleUrl><Point><altitudeMode>clampToGround</altitudeMode><coordinates>-85.50955556,10.14694444,0</coordinates></Point></Placemark>
<Placemark><name>MIRAM</name><styleUrl>#ptDefault</styleUrl><Point><altitudeMode>clampToGround</altitudeMode><coordinates>-84.58711111,10.14791667,0</coordinates></Point></Placemark>
<Placemark><name>JANES</name><styleUrl>#ptDefault</styleUrl><Point><altitudeMode>clampToGround</altitudeMode><coordinates>-84.19800000,10.14850000,0</coordinates></Point></Placemark>
<Placemark><name>TONIO</name><styleUrl>#ptDefault</styleUrl><Point><altitudeMode>clampToGround</altitudeMode><coordinates>-85.42991667,10.19166667,0</coordinates></Point></Placemark>
<Placemark><name>BARVA</name><styleUrl>#ptDefault</styleUrl><Point><altitudeMode>clampToGround</altitudeMode><coordinates>-84.05508333,10.19861111,0</coordinates></Point></Placemark>
<Placemark><name>CAÑAS</name><styleUrl>#ptDefault</styleUrl><Point><altitudeMode>clampToGround</altitudeMode><coordinates>-84.69463889,10.19908333,0</coordinates></Point></Placemark>
<Placemark><name>GRAND</name><styleUrl>#ptDefault</styleUrl><Point><altitudeMode>clampToGround</altitudeMode><coordinates>-83.94988889,10.20113889,0</coordinates></Point></Placemark>
<Placemark><name>RIOSA</name><styleUrl>#ptDefault</styleUrl><Point><altitudeMode>clampToGround</altitudeMode><coordinates>-83.99986111,10.20119444,0</coordinates></Point></Placemark>
<Placemark><name>ALIDU</name><styleUrl>#ptDefault</styleUrl><Point><altitudeMode>clampToGround</altitudeMode><coordinates>-85.38955556,10.20438889,0</coordinates></Point></Placemark>
<Placemark><name>ORRAL</name><styleUrl>#ptDefault</styleUrl><Point><altitudeMode>clampToGround</altitudeMode><coordinates>-85.32161111,10.23900000,0</coordinates></Point></Placemark>
<Placemark><name>AMAYO</name><styleUrl>#ptDefault</styleUrl><Point><altitudeMode>clampToGround</altitudeMode><coordinates>-85.45686111,10.28486111,0</coordinates></Point></Placemark>
<Placemark><name>SAINO</name><styleUrl>#ptDefault</styleUrl><Point><altitudeMode>clampToGround</altitudeMode><coordinates>-85.36027778,10.30016667,0</coordinates></Point></Placemark>
<Placemark><name>EDERO</name><styleUrl>#ptDefault</styleUrl><Point><altitudeMode>clampToGround</altitudeMode><coordinates>-85.22772222,10.31761111,0</coordinates></Point></Placemark>
<Placemark><name>ARENA</name><styleUrl>#ptDefault</styleUrl><Point><altitudeMode>clampToGround</altitudeMode><coordinates>-84.56897222,10.36386111,0</coordinates></Point></Placemark>
<Placemark><name>ROMKO</name><styleUrl>#ptDefault</styleUrl><Point><altitudeMode>clampToGround</altitudeMode><coordinates>-85.69513889,10.36711111,0</coordinates></Point></Placemark>
<Placemark><name>TILAR</name><styleUrl>#ptDefault</styleUrl><Point><altitudeMode>clampToGround</altitudeMode><coordinates>-84.89275000,10.36813889,0</coordinates></Point></Placemark>
<Placemark><name>SANMI</name><styleUrl>#ptDefault</styleUrl><Point><altitudeMode>clampToGround</altitudeMode><coordinates>-85.07419444,10.37566667,0</coordinates></Point></Placemark>
<Placemark><name>TABOG</name><styleUrl>#ptDefault</styleUrl><Point><altitudeMode>clampToGround</altitudeMode><coordinates>-85.16208333,10.41644444,0</coordinates></Point></Placemark>
<Placemark><name>RAKEN</name><styleUrl>#ptDefault</styleUrl><Point><altitudeMode>clampToGround</altitudeMode><coordinates>-85.36177778,10.44875000,0</coordinates></Point></Placemark>
<Placemark><name>FIORA</name><styleUrl>#ptDefault</styleUrl><Point><altitudeMode>clampToGround</altitudeMode><coordinates>-84.46708333,10.44927778,0</coordinates></Point></Placemark>
<Placemark><name>PITIC</name><styleUrl>#ptDefault</styleUrl><Point><altitudeMode>clampToGround</altitudeMode><coordinates>-85.73947222,10.45227778,0</coordinates></Point></Placemark>
<Placemark><name>RENAL</name><styleUrl>#ptDefault</styleUrl><Point><altitudeMode>clampToGround</altitudeMode><coordinates>-84.70322222,10.46450000,0</coordinates></Point></Placemark>
<Placemark><name>OTARU</name><styleUrl>#ptDefault</styleUrl><Point><altitudeMode>clampToGround</altitudeMode><coordinates>-85.76258333,10.51516667,0</coordinates></Point></Placemark>
<Placemark><name>COTAL</name><styleUrl>#ptDefault</styleUrl><Point><altitudeMode>clampToGround</altitudeMode><coordinates>-85.70177778,10.53172222,0</coordinates></Point></Placemark>
<Placemark><name>GOVIX</name><styleUrl>#ptDefault</styleUrl><Point><altitudeMode>clampToGround</altitudeMode><coordinates>-85.69891667,10.53802778,0</coordinates></Point></Placemark>
<Placemark><name>PERKA</name><styleUrl>#ptDefault</styleUrl><Point><altitudeMode>clampToGround</altitudeMode><coordinates>-85.63586111,10.56066667,0</coordinates></Point></Placemark>
<Placemark><name>ARDIA</name><styleUrl>#ptDefault</styleUrl><Point><altitudeMode>clampToGround</altitudeMode><coordinates>-85.62461111,10.56208333,0</coordinates></Point></Placemark>
<Placemark><name>MATUM</name><styleUrl>#ptDefault</styleUrl><Point><altitudeMode>clampToGround</altitudeMode><coordinates>-85.78561111,10.57819444,0</coordinates></Point></Placemark>
<Placemark><name>LIB</name><styleUrl>#ptDefault</styleUrl><Point><altitudeMode>clampToGround</altitudeMode><coordinates>-85.54633333,10.59416667,0</coordinates></Point></Placemark>
<Placemark><name>ALKEK</name><styleUrl>#ptDefault</styleUrl><Point><altitudeMode>clampToGround</altitudeMode><coordinates>-85.48497222,10.61469444,0</coordinates></Point></Placemark>
<Placemark><name>PULIN</name><styleUrl>#ptDefault</styleUrl><Point><altitudeMode>clampToGround</altitudeMode><coordinates>-85.46750000,10.62427778,0</coordinates></Point></Placemark>
<Placemark><name>ADRUL</name><styleUrl>#ptDefault</styleUrl><Point><altitudeMode>clampToGround</altitudeMode><coordinates>-85.40422222,10.64358333,0</coordinates></Point></Placemark>
<Placemark><name>DANTA</name><styleUrl>#ptDefault</styleUrl><Point><altitudeMode>clampToGround</altitudeMode><coordinates>-85.39066667,10.66363889,0</coordinates></Point></Placemark>
<Placemark><name>DUDKU</name><styleUrl>#ptDefault</styleUrl><Point><altitudeMode>clampToGround</altitudeMode><coordinates>-85.78633333,10.67588889,0</coordinates></Point></Placemark>
<Placemark><name>RADON</name><styleUrl>#ptDefault</styleUrl><Point><altitudeMode>clampToGround</altitudeMode><coordinates>-84.06855556,10.70266667,0</coordinates></Point></Placemark>
<Placemark><name>ANSON</name><styleUrl>#ptDefault</styleUrl><Point><altitudeMode>clampToGround</altitudeMode><coordinates>-82.63591667,10.70733333,0</coordinates></Point></Placemark>
<Placemark><name>COLOR</name><styleUrl>#ptDefault</styleUrl><Point><altitudeMode>clampToGround</altitudeMode><coordinates>-83.58319444,10.75280556,0</coordinates></Point></Placemark>
<Placemark><name>ROKBA</name><styleUrl>#ptDefault</styleUrl><Point><altitudeMode>clampToGround</altitudeMode><coordinates>-85.55033333,10.76244444,0</coordinates></Point></Placemark>
<Placemark><name>ORADA</name><styleUrl>#ptDefault</styleUrl><Point><altitudeMode>clampToGround</altitudeMode><coordinates>-85.76497222,10.76925000,0</coordinates></Point></Placemark>
<Placemark><name>REXER</name><styleUrl>#ptDefault</styleUrl><Point><altitudeMode>clampToGround</altitudeMode><coordinates>-85.64266667,10.80433333,0</coordinates></Point></Placemark>
<Placemark><name>DRITO</name><styleUrl>#ptDefault</styleUrl><Point><altitudeMode>clampToGround</altitudeMode><coordinates>-85.99891667,10.81386111,0</coordinates></Point></Placemark>
<Placemark><name>ELENA</name><styleUrl>#ptDefault</styleUrl><Point><altitudeMode>clampToGround</altitudeMode><coordinates>-85.88883333,10.86825000,0</coordinates></Point></Placemark>
<Placemark><name>PIRAS</name><styleUrl>#ptDefault</styleUrl><Point><altitudeMode>clampToGround</altitudeMode><coordinates>-84.37488889,10.90280556,0</coordinates></Point></Placemark>
<Placemark><name>ADRIB</name><styleUrl>#ptDefault</styleUrl><Point><altitudeMode>clampToGround</altitudeMode><coordinates>-86.41061550,10.90942090,0</coordinates></Point></Placemark>
<Placemark><name>CASTI</name><styleUrl>#ptDefault</styleUrl><Point><altitudeMode>clampToGround</altitudeMode><coordinates>-83.66283333,10.93658333,0</coordinates></Point></Placemark>
<Placemark><name>ALRAX</name><styleUrl>#ptDefault</styleUrl><Point><altitudeMode>clampToGround</altitudeMode><coordinates>-86.22600000,10.95070000,0</coordinates></Point></Placemark>
<Placemark><name>LODMI</name><styleUrl>#ptDefault</styleUrl><Point><altitudeMode>clampToGround</altitudeMode><coordinates>-86.03819930,10.99261560,0</coordinates></Point></Placemark>
<Placemark><name>CAPPE</name><styleUrl>#ptDefault</styleUrl><Point><altitudeMode>clampToGround</altitudeMode><coordinates>-85.79619444,11.04641667,0</coordinates></Point></Placemark>
<Placemark><name>ULAPO</name><styleUrl>#ptDefault</styleUrl><Point><altitudeMode>clampToGround</altitudeMode><coordinates>-85.17375000,11.04908333,0</coordinates></Point></Placemark>
<Placemark><name>TOTOK</name><styleUrl>#ptDefault</styleUrl><Point><altitudeMode>clampToGround</altitudeMode><coordinates>-85.73908333,11.05875000,0</coordinates></Point></Placemark>
<Placemark><name>LINAS</name><styleUrl>#ptDefault</styleUrl><Point><altitudeMode>clampToGround</altitudeMode><coordinates>-85.73683333,11.05958333,0</coordinates></Point></Placemark>
<Placemark><name>CHILE</name><styleUrl>#ptDefault</styleUrl><Point><altitudeMode>clampToGround</altitudeMode><coordinates>-84.55597222,11.06019444,0</coordinates></Point></Placemark>
<Placemark><name>POCHO</name><styleUrl>#ptDefault</styleUrl><Point><altitudeMode>clampToGround</altitudeMode><coordinates>-85.68844444,11.07277778,0</coordinates></Point></Placemark>
<Placemark><name>OROSI</name><styleUrl>#ptDefault</styleUrl><Point><altitudeMode>clampToGround</altitudeMode><coordinates>-85.36019444,11.13252778,0</coordinates></Point></Placemark>
<Placemark><name>ILLOS</name><styleUrl>#ptDefault</styleUrl><Point><altitudeMode>clampToGround</altitudeMode><coordinates>-83.34638889,11.15627778,0</coordinates></Point></Placemark>
<Placemark><name>POMEZ</name><styleUrl>#ptDefault</styleUrl><Point><altitudeMode>clampToGround</altitudeMode><coordinates>-85.51886111,11.17055556,0</coordinates></Point></Placemark>
<Placemark><name>SAPOA</name><styleUrl>#ptDefault</styleUrl><Point><altitudeMode>clampToGround</altitudeMode><coordinates>-85.61163889,11.21436111,0</coordinates></Point></Placemark>
<Placemark><name>IMOLA</name><styleUrl>#ptDefault</styleUrl><Point><altitudeMode>clampToGround</altitudeMode><coordinates>-85.80069444,11.21530556,0</coordinates></Point></Placemark>
<Placemark><name>AMUBI</name><styleUrl>#ptDefault</styleUrl><Point><altitudeMode>clampToGround</altitudeMode><coordinates>-82.71852778,11.60491667,0</coordinates></Point></Placemark>
<Placemark><name>PULGO</name><styleUrl>#ptDefault</styleUrl><Point><altitudeMode>clampToGround</altitudeMode><coordinates>-83.90080556,7.97191667,0</coordinates></Point></Placemark>
<Placemark><name>TIGIR</name><styleUrl>#ptDefault</styleUrl><Point><altitudeMode>clampToGround</altitudeMode><coordinates>-84.93475000,8.47025000,0</coordinates></Point></Placemark>
<Placemark><name>POXON</name><styleUrl>#ptDefault</styleUrl><Point><altitudeMode>clampToGround</altitudeMode><coordinates>-82.84236111,8.55513889,0</coordinates></Point></Placemark>
<Placemark><name>COTOS</name><styleUrl>#ptDefault</styleUrl><Point><altitudeMode>clampToGround</altitudeMode><coordinates>-82.97152778,8.60858333,0</coordinates></Point></Placemark>
<Placemark><name>DRAKE</name><styleUrl>#ptDefault</styleUrl><Point><altitudeMode>clampToGround</altitudeMode><coordinates>-84.00030556,8.68016667,0</coordinates></Point></Placemark>
<Placemark><name>EGODI</name><styleUrl>#ptDefault</styleUrl><Point><altitudeMode>clampToGround</altitudeMode><coordinates>-82.81816667,8.86333333,0</coordinates></Point></Placemark>
<Placemark><name>PELDA</name><styleUrl>#ptDefault</styleUrl><Point><altitudeMode>clampToGround</altitudeMode><coordinates>-84.56238889,9.03222222,0</coordinates></Point></Placemark>
<Placemark><name>SELAK</name><styleUrl>#ptDefault</styleUrl><Point><altitudeMode>clampToGround</altitudeMode><coordinates>-85.21111111,9.43327778,0</coordinates></Point></Placemark>
<Placemark><name>COCAL</name><styleUrl>#ptDefault</styleUrl><Point><altitudeMode>clampToGround</altitudeMode><coordinates>-84.21625000,9.44466667,0</coordinates></Point></Placemark>
<Placemark><name>PAQUI</name><styleUrl>#ptDefault</styleUrl><Point><altitudeMode>clampToGround</altitudeMode><coordinates>-84.19847222,9.47086111,0</coordinates></Point></Placemark>
<Placemark><name>BOCAS</name><styleUrl>#ptDefault</styleUrl><Point><altitudeMode>clampToGround</altitudeMode><coordinates>-84.32444444,9.51697222,0</coordinates></Point></Placemark>
<Placemark><name>ELTAS</name><styleUrl>#ptDefault</styleUrl><Point><altitudeMode>clampToGround</altitudeMode><coordinates>-83.97347222,9.51891667,0</coordinates></Point></Placemark>
<Placemark><name>PARRI</name><styleUrl>#ptDefault</styleUrl><Point><altitudeMode>clampToGround</altitudeMode><coordinates>-84.31813889,9.52330556,0</coordinates></Point></Placemark>
<Placemark><name>ISEBA</name><styleUrl>#ptDefault</styleUrl><Point><altitudeMode>clampToGround</altitudeMode><coordinates>-82.87000000,9.54138889,0</coordinates></Point></Placemark>
<Placemark><name>JULIE</name><styleUrl>#ptDefault</styleUrl><Point><altitudeMode>clampToGround</altitudeMode><coordinates>-84.30669444,9.54316667,0</coordinates></Point></Placemark>
<Placemark><name>FINCA</name><styleUrl>#ptDefault</styleUrl><Point><altitudeMode>clampToGround</altitudeMode><coordinates>-83.89419444,9.61441667,0</coordinates></Point></Placemark>
<Placemark><name>SANIG</name><styleUrl>#ptDefault</styleUrl><Point><altitudeMode>clampToGround</altitudeMode><coordinates>-84.29475000,9.65513889,0</coordinates></Point></Placemark>
<Placemark><name>DOTAS</name><styleUrl>#ptDefault</styleUrl><Point><altitudeMode>clampToGround</altitudeMode><coordinates>-84.23438889,9.68963889,0</coordinates></Point></Placemark>
<Placemark><name>ARUMA</name><styleUrl>#ptDefault</styleUrl><Point><altitudeMode>clampToGround</altitudeMode><coordinates>-84.43005556,9.69994444,0</coordinates></Point></Placemark>
<Placemark><name>TEREL</name><styleUrl>#ptDefault</styleUrl><Point><altitudeMode>clampToGround</altitudeMode><coordinates>-84.28013889,9.73758333,0</coordinates></Point></Placemark>
<Placemark><name>TARCO</name><styleUrl>#ptDefault</styleUrl><Point><altitudeMode>clampToGround</altitudeMode><coordinates>-84.70600000,9.79661111,0</coordinates></Point></Placemark>
<Placemark><name>BUFEO</name><styleUrl>#ptDefault</styleUrl><Point><altitudeMode>clampToGround</altitudeMode><coordinates>-82.57063889,9.81652778,0</coordinates></Point></Placemark>
<Placemark><name>TEJAR</name><styleUrl>#ptDefault</styleUrl><Point><altitudeMode>clampToGround</altitudeMode><coordinates>-83.95294444,9.82105556,0</coordinates></Point></Placemark>
<Placemark><name>CACHI</name><styleUrl>#ptDefault</styleUrl><Point><altitudeMode>clampToGround</altitudeMode><coordinates>-83.75722222,9.82113889,0</coordinates></Point></Placemark>
<Placemark><name>ALTOS</name><styleUrl>#ptDefault</styleUrl><Point><altitudeMode>clampToGround</altitudeMode><coordinates>-84.50763889,9.82222222,0</coordinates></Point></Placemark>
<Placemark><name>MOGOS</name><styleUrl>#ptDefault</styleUrl><Point><altitudeMode>clampToGround</altitudeMode><coordinates>-83.90202778,9.83311111,0</coordinates></Point></Placemark>
<Placemark><name>PUXAS</name><styleUrl>#ptDefault</styleUrl><Point><altitudeMode>clampToGround</altitudeMode><coordinates>-84.63122222,9.83611111,0</coordinates></Point></Placemark>
<Placemark><name>PARAI</name><styleUrl>#ptDefault</styleUrl><Point><altitudeMode>clampToGround</altitudeMode><coordinates>-83.83700000,9.84847222,0</coordinates></Point></Placemark>
<Placemark><name>ADSOR</name><styleUrl>#ptDefault</styleUrl><Point><altitudeMode>clampToGround</altitudeMode><coordinates>-84.55225000,9.86566667,0</coordinates></Point></Placemark>
<Placemark><name>BURGO</name><styleUrl>#ptDefault</styleUrl><Point><altitudeMode>clampToGround</altitudeMode><coordinates>-84.36611111,9.87802778,0</coordinates></Point></Placemark>
<Placemark><name>VIVES</name><styleUrl>#ptDefault</styleUrl><Point><altitudeMode>clampToGround</altitudeMode><coordinates>-84.69258333,9.88116667,0</coordinates></Point></Placemark>
<Placemark><name>VIVER</name><styleUrl>#ptDefault</styleUrl><Point><altitudeMode>clampToGround</altitudeMode><coordinates>-83.94708333,9.89194444,0</coordinates></Point></Placemark>
<Placemark><name>MATOS</name><styleUrl>#ptDefault</styleUrl><Point><altitudeMode>clampToGround</altitudeMode><coordinates>-84.47325000,9.89522222,0</coordinates></Point></Placemark>
<Placemark><name>ECOPE</name><styleUrl>#ptDefault</styleUrl><Point><altitudeMode>clampToGround</altitudeMode><coordinates>-83.94113889,9.89691667,0</coordinates></Point></Placemark>
<Placemark><name>MONLI</name><styleUrl>#ptDefault</styleUrl><Point><altitudeMode>clampToGround</altitudeMode><coordinates>-84.56116667,9.89977778,0</coordinates></Point></Placemark>
<Placemark><name>COLON</name><styleUrl>#ptDefault</styleUrl><Point><altitudeMode>clampToGround</altitudeMode><coordinates>-84.23577778,9.90363889,0</coordinates></Point></Placemark>
<Placemark><name>MOTEL</name><styleUrl>#ptDefault</styleUrl><Point><altitudeMode>clampToGround</altitudeMode><coordinates>-84.05055556,9.90877778,0</coordinates></Point></Placemark>
<Placemark><name>CASCA</name><styleUrl>#ptDefault</styleUrl><Point><altitudeMode>clampToGround</altitudeMode><coordinates>-84.62363889,9.91013889,0</coordinates></Point></Placemark>
<Placemark><name>GARZA</name><styleUrl>#ptDefault</styleUrl><Point><altitudeMode>clampToGround</altitudeMode><coordinates>-85.99413889,9.91433333,0</coordinates></Point></Placemark>
<Placemark><name>CARBA</name><styleUrl>#ptDefault</styleUrl><Point><altitudeMode>clampToGround</altitudeMode><coordinates>-84.39422222,9.92472222,0</coordinates></Point></Placemark>
<Placemark><name>ESRIO</name><styleUrl>#ptDefault</styleUrl><Point><altitudeMode>clampToGround</altitudeMode><coordinates>-84.07644444,9.93041667,0</coordinates></Point></Placemark>
<Placemark><name>CURVA</name><styleUrl>#ptDefault</styleUrl><Point><altitudeMode>clampToGround</altitudeMode><coordinates>-84.23930556,9.93466667,0</coordinates></Point></Placemark>
<Placemark><name>COPEY</name><styleUrl>#ptDefault</styleUrl><Point><altitudeMode>clampToGround</altitudeMode><coordinates>-84.24202778,9.93511111,0</coordinates></Point></Placemark>
<Placemark><name>CALDA</name><styleUrl>#ptDefault</styleUrl><Point><altitudeMode>clampToGround</altitudeMode><coordinates>-84.72533333,9.93577778,0</coordinates></Point></Placemark>
<Placemark><name>BALSE</name><styleUrl>#ptDefault</styleUrl><Point><altitudeMode>clampToGround</altitudeMode><coordinates>-84.35511111,9.93602778,0</coordinates></Point></Placemark>
<Placemark><name>MATEO</name><styleUrl>#ptDefault</styleUrl><Point><altitudeMode>clampToGround</altitudeMode><coordinates>-84.52811111,9.94158333,0</coordinates></Point></Placemark>
<Placemark><name>PRESA</name><styleUrl>#ptDefault</styleUrl><Point><altitudeMode>clampToGround</altitudeMode><coordinates>-84.22533333,9.94844444,0</coordinates></Point></Placemark>
<Placemark><name>PALIS</name><styleUrl>#ptDefault</styleUrl><Point><altitudeMode>clampToGround</altitudeMode><coordinates>-84.13716667,9.94861111,0</coordinates></Point></Placemark>
<Placemark><name>MUNDO</name><styleUrl>#ptDefault</styleUrl><Point><altitudeMode>clampToGround</altitudeMode><coordinates>-84.15950000,9.94952778,0</coordinates></Point></Placemark>
<Placemark><name>MAVIG</name><styleUrl>#ptDefault</styleUrl><Point><altitudeMode>clampToGround</altitudeMode><coordinates>-84.32150000,9.95186111,0</coordinates></Point></Placemark>
<Placemark><name>LIO</name><styleUrl>#ptDefault</styleUrl><Point><altitudeMode>clampToGround</altitudeMode><coordinates>-83.02717023,9.96314210,0</coordinates></Point></Placemark>
<Placemark><name>BELEN</name><styleUrl>#ptDefault</styleUrl><Point><altitudeMode>clampToGround</altitudeMode><coordinates>-84.21397222,9.96361111,0</coordinates></Point></Placemark>
<Placemark><name>CYRUS</name><styleUrl>#ptDefault</styleUrl><Point><altitudeMode>clampToGround</altitudeMode><coordinates>-84.26750000,9.96750000,0</coordinates></Point></Placemark>
<Placemark><name>CASTE</name><styleUrl>#ptDefault</styleUrl><Point><altitudeMode>clampToGround</altitudeMode><coordinates>-84.14655556,9.96952778,0</coordinates></Point></Placemark>
<Placemark><name>MACDO</name><styleUrl>#ptDefault</styleUrl><Point><altitudeMode>clampToGround</altitudeMode><coordinates>-84.11550000,9.97072222,0</coordinates></Point></Placemark>
<Placemark><name>VALEN</name><styleUrl>#ptDefault</styleUrl><Point><altitudeMode>clampToGround</altitudeMode><coordinates>-84.13988889,9.97119444,0</coordinates></Point></Placemark>
<Placemark><name>PEDRE</name><styleUrl>#ptDefault</styleUrl><Point><altitudeMode>clampToGround</altitudeMode><coordinates>-84.17955556,9.97486111,0</coordinates></Point></Placemark>
<Placemark><name>CLARA</name><styleUrl>#ptDefault</styleUrl><Point><altitudeMode>clampToGround</altitudeMode><coordinates>-83.72391667,9.97544444,0</coordinates></Point></Placemark>
<Placemark><name>BAREA</name><styleUrl>#ptDefault</styleUrl><Point><altitudeMode>clampToGround</altitudeMode><coordinates>-84.14305556,9.97755556,0</coordinates></Point></Placemark>
<Placemark><name>EPABE</name><styleUrl>#ptDefault</styleUrl><Point><altitudeMode>clampToGround</altitudeMode><coordinates>-84.16166667,9.97833333,0</coordinates></Point></Placemark>
<Placemark><name>PADUR</name><styleUrl>#ptDefault</styleUrl><Point><altitudeMode>clampToGround</altitudeMode><coordinates>-82.59736111,9.97980556,0</coordinates></Point></Placemark>
<Placemark><name>MINGO</name><styleUrl>#ptDefault</styleUrl><Point><altitudeMode>clampToGround</altitudeMode><coordinates>-84.09322222,9.98036111,0</coordinates></Point></Placemark>
<Placemark><name>SANAT</name><styleUrl>#ptDefault</styleUrl><Point><altitudeMode>clampToGround</altitudeMode><coordinates>-84.19155556,9.98036111,0</coordinates></Point></Placemark>
<Placemark><name>TIO</name><styleUrl>#ptDefault</styleUrl><Point><altitudeMode>clampToGround</altitudeMode><coordinates>-84.23615985,9.98366760,0</coordinates></Point></Placemark>
<Placemark><name>AMAZO</name><styleUrl>#ptDefault</styleUrl><Point><altitudeMode>clampToGround</altitudeMode><coordinates>-84.15463889,9.98483333,0</coordinates></Point></Placemark>
<Placemark><name>ATENA</name><styleUrl>#ptDefault</styleUrl><Point><altitudeMode>clampToGround</altitudeMode><coordinates>-84.38288889,9.98666667,0</coordinates></Point></Placemark>
<Placemark><name>ITABO</name><styleUrl>#ptDefault</styleUrl><Point><altitudeMode>clampToGround</altitudeMode><coordinates>-84.05050000,9.98744444,0</coordinates></Point></Placemark>
<Placemark><name>SASAY</name><styleUrl>#ptDefault</styleUrl><Point><altitudeMode>clampToGround</altitudeMode><coordinates>-84.13961111,10.39802780,0</coordinates></Point></Placemark>
</Folder>
<Folder><name>Routes</name>
<Style id="route_LaPalma"><LineStyle><color>ffffa000</color><width>3.0</width></LineStyle></Style>
<Folder><name>LaPalma — Points</name>
<Placemark><name>UNIVE</name><styleUrl>#start</styleUrl><Point><altitudeMode>absolute</altitudeMode><coordinates>-84.00016667,10.01333333,2286.00</coordinates></Point></Placemark>
<Placemark><name>Guapiles</name><styleUrl>#end</styleUrl><Point><altitudeMode>absolute</altitudeMode><coordinates>-83.79286838,10.21740928,2286.00</coordinates></Point></Placemark>
</Folder>
<Placemark><name>LaPalma</name><styleUrl>#route_LaPalma</styleUrl><LineString><altitudeMode>absolute</altitudeMode><coordinates>-84.00016667,10.01333333,2286.00 -83.79286838,10.21740928,2286.00</coordinates></LineString></Placemark>
</Folder>
</Document></kml>